[
    {
      "id": 1236982307800,
      "name": "Ferntree Gully Holden - Ferntree Gully",
      "description": "Ferntree Gully Holden - Ferntree Gully",
      "_self": "/api/2/dealers/1236982307800",
      "isRecommended": true,
      "companyName": "Ferntree Gully Holden",
      "website": "http://www.ferntreegullyholden.com.au",
      "inventory": "http://ferntree-gully.gmholdendealer.com.au/VehicleSearchResults",
      "holdenWebsite": "/dealers/victoria/metropolitan-melbourne-and-surrounds/ferntree-gully-holden",
      "address": "980 Burwood Highway",
      "suburb": "Ferntree Gully",
      "postcode": "3156",
      "phone": "03 9998 3707",
      "fax": "03 9753 1242",
      "latitude": -37.887573,
      "longitude": 145.28575,
      "openingHours": {
        "sales": [
          {
            "key": "Monday",
            "hours": "8:30am - 6:00pm"
          },
          {
            "key": "Tuesday",
            "hours": "8:30am - 6:00pm"
          },
          {
            "key": "Wednesday",
            "hours": "8:30am - 6:00pm"
          },
          {
            "key": "Thursday",
            "hours": "8:30am - 6:00pm"
          },
          {
            "key": "Friday",
            "hours": "8:30am - 6:00pm"
          },
          {
            "key": "Saturday",
            "hours": "8:30am - 6:00pm"
          },
          {
            "key": "Sunday",
            "hours": "Closed"
          }
        ],
        "service": [
          {
            "key": "Monday",
            "hours": "7:30am - 5:30pm"
          },
          {
            "key": "Tuesday",
            "hours": "7:30am - 5:30pm"
          },
          {
            "key": "Wednesday",
            "hours": "7:30am - 5:30pm"
          },
          {
            "key": "Thursday",
            "hours": "7:30am - 5:30pm"
          },
          {
            "key": "Friday",
            "hours": "7:30am - 5:30pm"
          },
          {
            "key": "Saturday",
            "hours": "8:00am - 12:00pm"
          },
          {
            "key": "Sunday",
            "hours": "Closed"
          }
        ],
        "parts": [
          {
            "key": "Monday",
            "hours": "8:00am - 5:30pm"
          },
          {
            "key": "Tuesday",
            "hours": "8:00am - 5:30pm"
          },
          {
            "key": "Wednesday",
            "hours": "8:00am - 5:30pm"
          },
          {
            "key": "Thursday",
            "hours": "8:00am - 5:30pm"
          },
          {
            "key": "Friday",
            "hours": "8:00am - 5:30pm"
          },
          {
            "key": "Saturday",
            "hours": "8:30am - 12:00pm"
          },
          {
            "key": "Sunday",
            "hours": "Closed"
          }
        ]
      },
      "legacyId": "01234",
      "BACCode": "286017"
    },
    {
      "id": 1220582359998,
      "name": "Patterson Cheney Holden - Vermont",
      "description": "Patterson Cheney Holden - Vermont",
      "_self": "/api/2/dealers/1220582359998",
      "isRecommended": false,
      "companyName": "Patterson Cheney Holden",
      "website": "http://www.pattersoncheneyholden.com.au",
      "inventory": "http://patterson-cheney.gmholdendealer.com.au/VehicleSearchResults",
      "holdenWebsite": "/dealers/victoria/metropolitan-melbourne-and-surrounds/patterson-cheney-holden",
      "address": "407 Canterbury Road",
      "suburb": "Vermont",
      "postcode": "3133",
      "phone": "03 9998 3741",
      "fax": "03 9262 6693",
      "tradingHours": "Monday - Friday 7.30 am - 6.00 pm; Saturday 8.30 am - 5.30 pm",
      "latitude": -37.836323,
      "longitude": 145.18756,
      "openingHours": {
        "sales": [
          {
            "key": "Monday",
            "hours": "8:30am - 6:00pm"
          },
          {
            "key": "Tuesday",
            "hours": "8:30am - 6:00pm"
          },
          {
            "key": "Wednesday",
            "hours": "8:30am - 6:00pm"
          },
          {
            "key": "Thursday",
            "hours": "8:30am - 6:00pm"
          },
          {
            "key": "Friday",
            "hours": "8:30am - 6:00pm"
          },
          {
            "key": "Saturday",
            "hours": "9:00am - 5:00pm"
          },
          {
            "key": "Sunday",
            "hours": "Closed"
          }
        ],
        "service": [
          {
            "key": "Monday",
            "hours": "7:30am - 5:30pm"
          },
          {
            "key": "Tuesday",
            "hours": "7:30am - 5:30pm"
          },
          {
            "key": "Wednesday",
            "hours": "7:30am - 5:30pm"
          },
          {
            "key": "Thursday",
            "hours": "7:30am - 5:30pm"
          },
          {
            "key": "Friday",
            "hours": "7:30am - 5:30pm"
          },
          {
            "key": "Saturday",
            "hours": "8:30am - 11:30am"
          },
          {
            "key": "Sunday",
            "hours": "Closed"
          }
        ],
        "parts": [
          {
            "key": "Monday",
            "hours": "8:30am - 5:00pm"
          },
          {
            "key": "Tuesday",
            "hours": "8:30am - 5:00pm"
          },
          {
            "key": "Wednesday",
            "hours": "8:30am - 5:00pm"
          },
          {
            "key": "Thursday",
            "hours": "8:30am - 5:00pm"
          },
          {
            "key": "Friday",
            "hours": "8:30am - 5:00pm"
          },
          {
            "key": "Saturday",
            "hours": "9:00am - 12:00pm"
          },
          {
            "key": "Sunday",
            "hours": "Closed"
          }
        ]
      },
      "legacyId": "85",
      "BACCode": "225702"
    },
    {
      "id": 1220582359958,
      "name": "Barloworld Holden - Glen Waverley",
      "description": "Barloworld Holden - Glen Waverley",
      "_self": "/api/2/dealers/1220582359958",
      "isRecommended": false,
      "companyName": "Glen Waverley Holden",
      "website": "http://www.glenwaverleyholden.com.au",
      "inventory": "http://glenwaverley.gmholdendealer.com.au/VehicleSearchResults",
      "holdenWebsite": "/dealers/victoria/metropolitan-melbourne-and-surrounds/glen-waverley-holden",
      "address": "565-577 Springvale Road",
      "suburb": "Glen Waverley",
      "postcode": "3150",
      "phone": "03 9998 3740",
      "fax": "03 9550 5855",
      "tradingHours": "Monday - Saturday 8.30 am - 6.00 pm",
      "latitude": -37.90594,
      "longitude": 145.15993,
      "openingHours": {
        "sales": [
          {
            "key": "Monday",
            "hours": "8:30am - 6:00pm"
          },
          {
            "key": "Tuesday",
            "hours": "8:30am - 6:00pm"
          },
          {
            "key": "Wednesday",
            "hours": "8:30am - 6:00pm"
          },
          {
            "key": "Thursday",
            "hours": "8:30am - 6:00pm"
          },
          {
            "key": "Friday",
            "hours": "8:30am - 6:00pm"
          },
          {
            "key": "Saturday",
            "hours": "8:30am - 6:00pm"
          },
          {
            "key": "Sunday",
            "hours": "Closed"
          }
        ],
        "service": [
          {
            "key": "Monday",
            "hours": "7:30am - 5:30pm"
          },
          {
            "key": "Tuesday",
            "hours": "7:30am - 5:30pm"
          },
          {
            "key": "Wednesday",
            "hours": "7:30am - 5:30pm"
          },
          {
            "key": "Thursday",
            "hours": "7:30am - 5:30pm"
          },
          {
            "key": "Friday",
            "hours": "7:30am - 5:30pm"
          },
          {
            "key": "Saturday",
            "hours": "7:30am - 12:00pm"
          },
          {
            "key": "Sunday",
            "hours": "Closed"
          }
        ],
        "parts": [
          {
            "key": "Monday",
            "hours": "8:00am - 5:30pm"
          },
          {
            "key": "Tuesday",
            "hours": "8:00am - 5:30pm"
          },
          {
            "key": "Wednesday",
            "hours": "8:00am - 5:30pm"
          },
          {
            "key": "Thursday",
            "hours": "8:00am - 5:30pm"
          },
          {
            "key": "Friday",
            "hours": "8:00am - 5:30pm"
          },
          {
            "key": "Saturday",
            "hours": "8:00am - 12:00pm"
          },
          {
            "key": "Sunday",
            "hours": "Closed"
          }
        ]
      },
      "legacyId": "84",
      "BACCode": "225701"
    },
    {
      "id": 1220582357984,
      "name": "Heritage Holden - Lilydale",
      "description": "Heritage Holden - Lilydale",
      "_self": "/api/2/dealers/1220582357984",
      "isRecommended": false,
      "companyName": "Heritage Holden",
      "website": "http://www.heritageholden.com.au",
      "inventory": "http://heritage-lilydale.gmholdendealer.com.au/VehicleSearchResults",
      "holdenWebsite": "/dealers/victoria/metropolitan-melbourne-and-surrounds/heritage-holden",
      "address": "457 Maroondah Hwy",
      "suburb": "Lilydale",
      "postcode": "3140",
      "phone": "03 9998 3705",
      "fax": "03 9735 1040",
      "tradingHours": "Sales: Monday-Saturday 8.30 am - 6.00 pm; Service & Parts: Monday-Friday 7.30 am - 5.30 pm; Saturday 8.30 am - 12 noon",
      "latitude": -37.75419,
      "longitude": 145.36253,
      "openingHours": {
        "sales": [
          {
            "key": "Monday",
            "hours": "8:00am - 6:00pm"
          },
          {
            "key": "Tuesday",
            "hours": "8:00am - 6:00pm"
          },
          {
            "key": "Wednesday",
            "hours": "8:00am - 6:00pm"
          },
          {
            "key": "Thursday",
            "hours": "8:00am - 6:00pm"
          },
          {
            "key": "Friday",
            "hours": "8:00am - 6:00pm"
          },
          {
            "key": "Saturday",
            "hours": "8:00am - 6:00pm"
          },
          {
            "key": "Sunday",
            "hours": "Closed"
          }
        ],
        "service": [
          {
            "key": "Monday",
            "hours": "7:30am - 5:30pm"
          },
          {
            "key": "Tuesday",
            "hours": "7:30am - 5:30pm"
          },
          {
            "key": "Wednesday",
            "hours": "7:30am - 5:30pm"
          },
          {
            "key": "Thursday",
            "hours": "7:30am - 5:30pm"
          },
          {
            "key": "Friday",
            "hours": "7:30am - 5:30pm"
          },
          {
            "key": "Saturday",
            "hours": "8:00am - 12:00pm"
          },
          {
            "key": "Sunday",
            "hours": "Closed"
          }
        ],
        "parts": [
          {
            "key": "Monday",
            "hours": "8:00am - 5:00pm"
          },
          {
            "key": "Tuesday",
            "hours": "8:00am - 5:00pm"
          },
          {
            "key": "Wednesday",
            "hours": "8:00am - 5:00pm"
          },
          {
            "key": "Thursday",
            "hours": "8:00am - 5:00pm"
          },
          {
            "key": "Friday",
            "hours": "8:00am - 5:00pm"
          },
          {
            "key": "Saturday",
            "hours": "8:30 - 12:00pm"
          },
          {
            "key": "Sunday",
            "hours": "Closed"
          }
        ]
      },
      "legacyId": "26",
      "BACCode": "225464"
    },
    {
      "id": 1237001000143,
      "name": "Doncaster Holden - Doncaster",
      "description": "Doncaster Holden - Doncaster",
      "_self": "/api/2/dealers/1237001000143",
      "isRecommended": false,
      "companyName": "Doncaster Holden",
      "website": "http://www.doncasterholden.com.au",
      "inventory": "http://doncaster.gmholdendealer.com.au/VehicleSearchResults",
      "holdenWebsite": "/dealers/victoria/metropolitan-melbourne-and-surrounds/doncaster-holden",
      "address": "825 Doncaster Road",
      "suburb": "Doncaster",
      "postcode": "3108",
      "phone": "03 9998 3711",
      "fax": "03 8848 1331",
      "latitude": -37.78665,
      "longitude": 145.13933,
      "openingHours": {
        "sales": [
          {
            "key": "Monday",
            "hours": "8:30am - 6:00pm"
          },
          {
            "key": "Tuesday",
            "hours": "8:30am - 6:00pm"
          },
          {
            "key": "Wednesday",
            "hours": "8:30am - 6:00pm"
          },
          {
            "key": "Thursday",
            "hours": "8:30am - 6:00pm"
          },
          {
            "key": "Friday",
            "hours": "8:30am - 6:00pm"
          },
          {
            "key": "Saturday",
            "hours": "8:30am - 5:00pm"
          },
          {
            "key": "Sunday",
            "hours": "Closed"
          }
        ],
        "service": [
          {
            "key": "Monday",
            "hours": "7:30am - 5:30pm"
          },
          {
            "key": "Tuesday",
            "hours": "7:30am - 5:30pm"
          },
          {
            "key": "Wednesday",
            "hours": "7:30am - 5:30pm"
          },
          {
            "key": "Thursday",
            "hours": "7:30am - 5:30pm"
          },
          {
            "key": "Friday",
            "hours": "7:30am - 5:30pm"
          },
          {
            "key": "Saturday",
            "hours": " Closed"
          },
          {
            "key": "Sunday",
            "hours": " Closed"
          }
        ],
        "parts": [
          {
            "key": "Monday",
            "hours": "8:00am - 5:30pm"
          },
          {
            "key": "Tuesday",
            "hours": "8:00am - 5:30pm"
          },
          {
            "key": "Wednesday",
            "hours": "8:00am - 5:30pm"
          },
          {
            "key": "Thursday",
            "hours": "8:00am - 5:30pm"
          },
          {
            "key": "Friday",
            "hours": "8:00am - 5:30pm"
          },
          {
            "key": "Saturday",
            "hours": " 9:00am - 12:00pm"
          },
          {
            "key": "Sunday",
            "hours": "Closed"
          }
        ]
      },
      "legacyId": "01234",
      "BACCode": "293337"
    }
  ]